[
  {
    "name": "Hurzuf",
    "country": "UA",
    "coordinates": {
      "lon": 34.283333,
      "lat": 44.549999
    }
  },
  {
    "name": "Novinki",
    "country": "RU",
    "coordinates": {
      "lon": 37.666668,
      "lat": 55.683334
    }
  },
  {
    "name": "Gorkhā",
    "country": "NP",
    "coordinates": {
      "lon": 84.633331,
      "lat": 28
    }
  },
  {
    "name": "State of Haryāna",
    "country": "IN",
    "coordinates": {
      "lon": 76,
      "lat": 29
    }
  },
  {
    "name": "Holubynka",
    "country": "UA",
    "coordinates": {
      "lon": 33.900002,
      "lat": 44.599998
    }
  },
  {
    "name": "Bāgmatī Zone",
    "country": "NP",
    "coordinates": {
      "lon": 85.416664,
      "lat": 28
    }
  },
  {
    "id": 529334,
    "name": "Mar’ina Roshcha",
    "country": "RU",
    "coordinates": {
      "lon": 37.611111,
      "lat": 55.796391
    }
  },
  {
    "name": "Republic of India",
    "country": "IN",
    "coordinates": {
      "lon": 77,
      "lat": 20
    }
  },
  {
    "name": "Vinogradovo",
    "country": "RU",
    "coordinates": {
      "lon": 38.545555,
      "lat": 55.423332
    }
  }
]
